{"postalCodes":[{"adminCode2":"439","adminCode1":"TX","adminName2":"Tarrant County","lng":-97.082576,"distance":"0","countryCode":"US","postalCode":"76010","adminName1":"Texas","placeName":"Arlington","lat":32.720368},{"adminCode2":"439","adminCode1":"TX","adminName2":"Tarrant County","lng":-97.087556,"distance":"2.81227","countryCode":"US","postalCode":"76014","adminName1":"Texas","placeName":"Arlington","lat":32.695425},{"adminCode2":"439","adminCode1":"TX","adminName2":"Tarrant County","lng":-97.1080656,"distance":"2.93017","countryCode":"US","postalCode":"76019","adminName1":"Texas","placeName":"Arlington","lat":32.735687},{"adminCode2":"439","adminCode1":"TX","adminName2":"Tarrant County","lng":-97.1080656,"distance":"2.93017","countryCode":"US","postalCode":"76004","adminName1":"Texas","placeName":"Arlington","lat":32.735687},{"adminCode2":"439","adminCode1":"TX","adminName2":"Tarrant County","lng":-97.100302,"distance":"4.52515","countryCode":"US","postalCode":"76011","adminName1":"Texas","placeName":"Arlington","lat":32.758236},{"adminCode2":"439","adminCode1":"TX","adminName2":"Tarrant County","lng":-97.134685,"distance":"5.73973","countryCode":"US","postalCode":"76015","adminName1":"Texas","placeName":"Arlington","lat":32.693125},{"adminCode2":"439","adminCode1":"TX","adminName2":"Tarrant County","lng":-97.14416,"distance":"5.76117","countryCode":"US","postalCode":"76013","adminName1":"Texas","placeName":"Arlington","lat":32.719905},{"adminCode2":"439","adminCode1":"TX","adminName2":"Tarrant County","lng":-97.134808,"distance":"6.14958","countryCode":"US","postalCode":"76012","adminName1":"Texas","placeName":"Arlington","lat":32.753962},{"adminCode2":"439","adminCode1":"TX","adminName2":"Tarrant County","lng":-97.083425,"distance":"6.46349","countryCode":"US","postalCode":"76006","adminName1":"Texas","placeName":"Arlington","lat":32.778494},{"adminCode2":"113","adminCode1":"TX","adminName2":"Dallas County","lng":-97.006916,"distance":"7.14683","countryCode":"US","postalCode":"75051","adminName1":"Texas","placeName":"Grand Prairie","lat":32.711471}]}